City_ID,City,Lat,Lng,Max Temp,Humidity,Cloudiness,Wind Speed,Country,Date
0,susuman,62.7833,148.1667,-36.12,93,100,0.89,RU,1708267974
1,mil'kovo,55.6078,37.7956,-1.73,80,100,4.92,RU,1708267975
2,gargalianoi,37.0667,21.6333,15.75,69,0,4.36,GR,1708267976
3,akureyri,65.6835,-18.0878,5.96,70,20,5.66,IS,1708267977
4,esperanza,19.5847,-70.9849,26.32,44,4,1.7,DO,1708267978
5,hauterive,46.0901,3.4459,13.42,57,100,2.62,FR,1708267980
6,mayenne,48.3333,-0.6667,12.69,97,100,5.07,FR,1708267980
7,port-aux-francais,-49.35,70.2167,4.87,78,50,17.84,TF,1708267981
8,brisas de zicatela,15.8369,-97.0419,26.57,65,64,2.2,MX,1708267982
9,klyuchi,52.2667,79.1667,-24.04,99,67,2.64,RU,1708267984
10,chilca,-12.5211,-76.7372,24.43,83,50,2.83,PE,1708267984
11,tamanrasset,22.785,5.5228,24.95,11,0,7.72,DZ,1708267985
12,talnakh,69.4865,88.3972,-24.33,98,100,5.78,RU,1708267986
13,arraial do cabo,-22.9661,-42.0278,29.98,70,40,6.17,BR,1708267988
14,edinburgh of the seven seas,-37.0676,-12.3116,15.38,68,19,9.11,SH,1708267989
15,jamestown,42.097,-79.2353,-6.23,72,99,4.02,US,1708267990
16,hamilton,39.1834,-84.5333,-2.98,64,8,3.13,US,1708267864
17,sao felix do xingu,-6.6447,-51.995,26.87,93,93,0.54,BR,1708267992
18,margaret river,-33.95,115.0667,23.52,60,100,5.71,AU,1708267791
19,invercargill,-46.4,168.35,17.79,63,94,6.71,NZ,1708267994
20,cabo san lucas,22.8909,-109.9124,17.64,56,0,2.84,MX,1708267995
21,isafjordur,66.0755,-23.124,3.02,87,40,2.06,IS,1708267996
22,grytviken,-54.2811,-36.5092,5.71,98,98,6.97,GS,1708267841
23,ciudad lazaro cardenas,17.9583,-102.2,23.4,68,0,0.99,MX,1708267998
24,queenstown,-31.8976,26.8753,27.31,32,0,9.13,ZA,1708268000
25,serdar,38.9764,56.2757,-1.96,94,100,1.1,TM,1708268001
26,bilibino,68.0546,166.4372,-24.64,86,100,0.99,RU,1708268002
27,whitehorse,60.7161,-135.0538,-12.57,85,75,0.0,CA,1708268003
28,albany,42.6001,-73.9662,-2.58,58,94,0.89,US,1708268004
29,polyarnyy,69.1989,33.4478,-5.58,88,96,10.49,RU,1708268005
30,san luis de la loma,17.2706,-100.8939,24.66,59,0,1.06,MX,1708268006
31,petropavlovsk-kamchatsky,53.0452,158.6483,-13.67,83,0,6.26,RU,1708267763
32,yellowknife,62.456,-114.3525,-23.66,83,20,4.12,CA,1708268008
33,abepura,-2.6333,140.5833,25.45,94,20,2.06,ID,1708268009
34,beyneu,45.3167,55.2,-4.86,35,72,6.27,KZ,1708268010
35,ambovombe,-25.1667,46.0833,24.36,78,62,9.21,MG,1708268011
36,puerto natales,-51.7236,-72.4875,18.25,48,75,8.23,CL,1708268012
37,hawaiian paradise park,19.5933,-154.9731,18.91,86,26,0.45,US,1708268013
38,kodiak,57.79,-152.4072,3.94,99,100,2.58,US,1708268015
39,at taraf,25.3628,49.725,22.3,25,0,5.93,SA,1708268016
40,flying fish cove,-10.4217,105.6791,27.82,83,75,3.09,CX,1708268017
41,ushuaia,-54.8,-68.3,11.81,58,75,5.14,AR,1708268018
42,kidal,18.4411,1.4078,31.86,6,49,1.24,ML,1708268019
43,kingston,17.997,-76.7936,30.69,66,20,6.17,JM,1708267894
44,ust'-ilimsk,58.0006,102.6619,-29.32,98,98,0.45,RU,1708268021
45,verkhnevilyuysk,63.4453,120.3167,-30.15,95,100,3.07,RU,1708268022
46,urengoy,65.9667,78.3667,-21.41,83,100,8.54,RU,1708268022
47,fortuna,40.5982,-124.1573,10.19,91,20,8.75,US,1708267454
48,andergrove,-21.0833,149.1833,23.69,78,42,6.34,AU,1708267853
49,nanzhang chengguanzhen,31.7839,111.8275,14.15,52,46,2.54,CN,1708268025
50,bredasdorp,-34.5322,20.0403,22.87,50,0,8.11,ZA,1708268026
51,saudarkrokur,65.7461,-19.6394,3.72,86,33,4.32,IS,1708268028
52,ash shatrah,31.4117,46.1742,19.28,34,1,3.04,IQ,1708268028
53,zemio,5.0314,25.1361,37.19,14,100,2.03,CF,1708268029
54,aasiaat,68.7098,-52.8699,-13.91,93,100,8.84,GL,1708268030
55,onega,63.9061,38.1404,-3.49,85,100,7.4,RU,1708268031
56,bima,-8.4667,118.7167,25.58,94,100,0.51,ID,1708268034
57,iqaluit,63.7506,-68.5145,-33.15,62,20,11.83,CA,1708268035
58,port lincoln,-34.7333,135.8667,18.83,76,1,6.29,AU,1708268036
59,sena madureira,-9.0656,-68.6569,31.3,61,100,1.79,BR,1708268037
60,pangody,65.85,74.4859,-18.92,87,100,10.89,RU,1708268037
61,badger,64.8,-147.5333,-17.86,76,40,0.0,US,1708268038
62,cidreira,-30.1811,-50.2056,26.0,78,1,6.45,BR,1708268039
63,waitangi,-43.9535,-176.5597,16.57,96,3,0.89,NZ,1708268040
64,ilulissat,69.2167,-51.1,-4.58,82,94,5.42,GL,1708268041
65,bethel,41.3712,-73.414,-0.55,55,0,7.2,US,1708267784
66,lloydminster,53.2835,-110.0016,-13.88,85,0,1.54,CA,1708268043
67,aykhal,66.0,111.5,-25.12,98,100,2.53,RU,1708268045
68,mount isa,-20.7333,139.5,24.87,94,100,1.03,AU,1708268046
69,aripuana,-9.1667,-60.6333,25.93,86,100,1.44,BR,1708268047
70,greenville,35.6127,-77.3663,3.01,50,0,2.06,US,1708268048
71,damghan,36.1683,54.348,4.39,48,85,5.44,IR,1708268049
72,dalhart,36.0595,-102.5133,0.6,52,0,4.29,US,1708268050
73,west island,-12.1568,96.8225,27.99,78,55,2.57,CC,1708268051
74,okhotsk,59.3833,143.3,-26.19,94,79,2.45,RU,1708268052
75,wailua homesteads,22.0669,-159.378,19.3,74,61,1.79,US,1708268053
76,san julian,21.0167,-102.1667,9.22,58,0,1.38,MX,1708268054
77,dryden,49.7833,-92.7503,-9.84,79,100,3.09,CA,1708268055
78,papatowai,-46.5619,169.4708,17.23,53,100,8.66,NZ,1708268056
79,adamstown,-25.066,-130.1015,24.2,77,100,3.87,PN,1708268057
80,bhamo,24.2667,97.2333,18.5,45,0,0.77,MM,1708268058
81,cole harbour,44.6724,-63.4751,-6.13,64,86,5.36,CA,1708268060
82,fort bragg,35.139,-79.006,3.79,47,0,1.34,US,1708268061
83,khanty-mansiysk,61.0042,69.0019,-18.83,65,0,5.0,RU,1708268062
84,vila velha,-20.3297,-40.2925,26.97,88,75,3.13,BR,1708268063
85,lihue,21.9789,-159.3672,19.64,74,44,6.77,US,1708268064
86,odense,55.3959,10.3883,4.9,97,100,7.63,DK,1708268065
87,arno,60.1167,18.6333,-0.68,80,100,3.17,SE,1708268066
88,beloyarskiy,63.7119,66.6722,-14.46,81,100,6.23,RU,1708268067
89,correntina,-13.3433,-44.6367,31.31,52,68,1.31,BR,1708268068
90,tura,25.5198,90.2201,16.52,36,0,1.11,IN,1708268069
91,udachny,66.4167,112.4,-26.42,75,100,4.86,RU,1708268070
92,sitka,57.0531,-135.33,5.72,91,100,2.31,US,1708268071
93,enewetak,11.3474,162.3373,26.41,75,83,6.49,MH,1708268072
94,atafu village,-8.5421,-172.5159,28.61,79,100,5.45,TK,1708268073
95,xinzhou,38.4092,112.7333,1.75,43,88,5.8,CN,1708267814
96,cill airne,52.05,-9.5167,13.03,76,40,6.17,IE,1708268075
97,sarkand,45.41,79.9186,-20.09,85,84,2.12,KZ,1708268076
98,namibe,-15.1961,12.1522,26.76,75,40,5.75,AO,1708268077
99,dehui,44.5333,125.7,-7.2,90,100,5.12,CN,1708268078
100,rioblanco,3.5308,-75.6806,24.82,58,83,2.32,CO,1708268079
101,alofi,-19.0595,-169.9187,25.94,73,94,5.14,NU,1708268080
102,magdagachi,53.45,125.8,-30.13,89,7,2.7,RU,1708268081
103,ozery,54.86,38.5506,-2.45,97,94,6.71,RU,1708268082
104,puerto real,36.5282,-6.1901,21.09,56,0,3.09,ES,1708268083
105,linhares,-19.3911,-40.0722,26.97,84,100,2.66,BR,1708268084
106,tazovsky,67.4667,78.7,-19.34,88,100,9.83,RU,1708268085
107,stanley,54.868,-1.6985,12.1,74,75,6.69,GB,1708268086
108,port alfred,-33.5906,26.891,22.88,81,71,1.79,ZA,1708268042
109,port elizabeth,-33.918,25.5701,25.16,62,40,5.66,ZA,1708268087
110,la'ie,21.6477,-157.9253,20.9,61,37,4.02,US,1708268090
111,brookings,44.3114,-96.7984,-5.9,81,0,2.57,US,1708268091
112,ilam,26.9167,87.9167,12.78,50,25,1.76,NP,1708268092
113,erdenet,49.0333,104.0833,-32.74,99,36,0.96,MN,1708267981
114,mitu,1.1983,-70.1733,27.84,78,95,1.02,CO,1708268094
115,constantia,44.1833,28.65,7.61,78,67,3.64,RO,1708267894
116,troitsko-pechorsk,62.7084,56.1964,-10.73,93,100,6.71,RU,1708268097
117,bom jesus,-9.0744,-44.3586,31.47,60,75,1.64,BR,1708268097
118,colonia,50.9333,6.95,10.36,87,40,5.14,DE,1708268099
119,newport,51.5877,-2.9984,15.53,86,39,5.17,GB,1708268099
120,sao jose de ribamar,-2.5619,-44.0542,28.21,82,65,5.67,BR,1708268100
121,hami,42.8,93.45,-8.45,22,67,1.1,CN,1708268101
122,corowa,-36.0333,146.3833,20.37,42,100,2.27,AU,1708268102
123,jaru,-10.4389,-62.4664,28.12,76,100,2.96,BR,1708268104
124,utiel,39.5667,-1.2,18.01,36,62,3.26,ES,1708267599
125,magadan,59.5667,150.8,-21.04,81,100,1.51,RU,1708268106
126,opuwo,-18.0607,13.84,33.94,18,81,4.54,NA,1708268107
127,qarazhal,48.0078,70.7903,-22.28,92,8,4.54,KZ,1708268108
128,thompson,55.7435,-97.8558,-23.91,77,20,2.06,CA,1708268109
129,margate,51.3813,1.3862,14.61,85,81,0.89,GB,1708268110
130,grand falls-windsor,48.9332,-55.6649,-4.16,89,100,0.45,CA,1708268111
131,twon-brass,4.3151,6.2418,29.97,74,50,6.81,NG,1708268112
132,tromso,69.6496,18.957,-1.99,86,75,2.57,NO,1708268113
133,novoazovs'k,47.1139,38.086,1.74,75,95,0.81,UA,1708268114
134,yuzhne,46.6221,31.1013,4.91,91,100,3.67,UA,1708268116
135,kruisfontein,-34.0033,24.7314,23.82,56,0,7.06,ZA,1708268117
136,juba,4.8517,31.5825,38.2,13,56,2.87,SS,1708268118
137,qaqortoq,60.7167,-46.0333,-0.59,86,100,1.13,GL,1708268118
138,kavaratti,10.5669,72.642,28.22,69,12,0.45,IN,1708268119
139,levuka,50.1834,-105.4011,-17.16,92,20,2.02,CA,1708268120
140,blackmans bay,-43.0167,147.3167,14.85,74,16,0.45,AU,1708268122
141,chonchi,-42.6128,-73.8092,14.56,43,77,1.97,CL,1708268123
142,ancud,-41.8697,-73.8203,16.11,55,29,2.62,CL,1708268124
143,rikaze,29.25,88.8833,3.96,16,37,1.64,CN,1708267946
144,bolobo,-2.1667,16.2333,31.59,51,85,3.13,CD,1708268125
145,newman,37.3138,-121.0208,10.72,94,19,0.89,US,1708268126
146,dudinka,69.4058,86.1778,-24.1,90,100,4.92,RU,1708267938
147,sumbawa besar,-8.5,117.4333,25.33,94,100,0.92,ID,1708268128
148,chiang klang,19.2938,100.8617,23.37,33,0,0.65,TH,1708268129
149,choyr,46.3611,108.3611,-31.83,88,3,2.92,MN,1708268131
150,port blair,11.6667,92.75,27.02,65,38,3.6,IN,1708268132
151,port mathurin,-19.6833,63.4167,26.61,72,11,7.27,MU,1708268133
152,longyearbyen,78.2186,15.6401,-13.09,66,75,5.14,SJ,1708268134
153,mhamid,29.82,-5.72,22.44,25,0,10.67,MA,1708268135
154,savsat,41.2403,42.3611,1.92,91,99,1.7,TR,1708268136
155,holualoa,19.6228,-155.9522,18.77,86,67,1.11,US,1708268137
156,coquimbo,-29.9533,-71.3436,17.85,88,100,3.6,CL,1708268138
157,hithadhoo,-0.6,73.0833,28.56,78,100,5.1,MV,1708268139
158,olonets,60.9847,32.9698,-7.21,90,87,3.23,RU,1708268140
159,n'zeto,-7.2312,12.8666,30.4,67,76,5.38,AO,1708268141
160,huarmey,-10.0681,-78.1522,25.92,77,47,3.54,PE,1708268142
161,yanam,16.7333,82.2167,23.09,76,2,2.35,IN,1708268143
162,utrik,11.2278,169.8474,26.19,85,81,6.73,MH,1708268144
163,derbent,42.0678,48.2899,1.74,66,82,2.34,RU,1708268018
164,saipan,15.1355,145.701,26.02,81,22,7.36,MP,1708268108
165,sept-iles,50.2001,-66.3821,-12.75,50,75,5.14,CA,1708268147
166,conde,-7.2597,-34.9075,31.7,66,75,4.63,BR,1708268148
167,carnarvon,-24.8667,113.6333,26.73,76,74,1.85,AU,1708268149
168,port macquarie,-31.4333,152.9167,22.72,86,100,2.55,AU,1708268152
169,ceyhan,37.0247,35.8175,18.19,77,8,2.34,TR,1708268153
170,ribeira grande,38.5167,-28.7,19.22,68,20,5.36,PT,1708267942
171,vila do maio,15.1333,-23.2167,30.44,77,0,6.99,CV,1708268154
172,ha'il,27.5219,41.6907,18.01,29,0,2.06,SA,1708268156
173,georgetown,5.4112,100.3354,29.97,79,20,1.54,MY,1708268080
174,punta arenas,-53.15,-70.9167,14.06,58,0,7.2,CL,1708268158
175,aoulef,26.9667,1.0833,22.69,26,64,9.08,DZ,1708268111
176,avarua,-21.2078,-159.775,25.03,73,98,3.09,CK,1708268160
177,tacuarembo,-31.7333,-55.9833,30.06,49,33,3.46,UY,1708268161
178,olonkinbyen,70.9221,-8.7187,-0.3,88,47,4.04,SJ,1708268162
179,talara,-4.5772,-81.2719,28.42,69,0,6.17,PE,1708268163
180,ta`u,-14.2336,-169.5144,28.22,82,96,10.87,AS,1708268164
181,kibre mengist,5.8833,38.9833,27.45,28,73,1.31,ET,1708268166
182,as sulayyil,20.4607,45.5779,27.14,25,82,5.67,SA,1708268167
183,valparaiso,-33.0393,-71.6273,26.75,76,100,3.6,CL,1708268167
184,tuxpan,19.55,-103.4,14.75,75,0,2.19,MX,1708268169
185,floro,61.5996,5.0328,3.04,87,75,6.69,NO,1708268170
186,mawlaik,23.6333,94.4167,18.75,48,0,0.5,MM,1708268171
187,tadine,-21.55,167.8833,25.21,77,100,5.63,NC,1708268172
188,northam,51.0333,-4.2167,10.77,99,82,4.46,GB,1708268173
189,lodja,-3.4833,23.4333,24.01,95,94,0.75,CD,1708268174
190,urucara,-2.5364,-57.76,28.42,78,95,2.43,BR,1708268175
191,lazaro cardenas,17.9583,-102.2,23.4,68,0,0.99,MX,1708267998
192,puerto ayora,-0.7393,-90.3518,27.98,100,42,1.34,EC,1708268177
193,villa gesell,-37.2639,-56.973,25.03,79,100,3.74,AR,1708267934
194,molochnoye,59.2917,39.6787,-3.15,91,100,4.92,RU,1708268179
195,darab,28.7519,54.5444,14.69,20,0,2.03,IR,1708268180
196,kyzyl-mazhalyk,51.1333,90.6,-23.94,89,100,0.89,RU,1708268180
197,marovoay,-16.1,46.6333,27.66,82,100,3.24,MG,1708268181
198,kepno,51.2784,17.9891,8.22,57,100,3.08,PL,1708268183
199,hermanus,-34.4187,19.2345,28.22,41,0,9.31,ZA,1708268184
200,lebu,-37.6167,-73.65,16.51,67,0,9.03,CL,1708268184
201,dingcheng,32.1272,115.0394,13.34,70,100,3.81,CN,1708268184
202,phrae,18.0833,100.0,24.68,44,0,1.32,TH,1708267987
203,selfoss,63.9331,-20.9971,4.47,98,98,2.73,IS,1708268187
204,gorontalo,0.5412,123.0595,23.33,93,99,1.69,ID,1708267943
205,arba minch,6.0333,37.55,29.22,40,98,1.4,ET,1708268189
206,geraldton,-28.7667,114.6,30.23,23,99,2.06,AU,1708268191
207,crane,31.3974,-102.3501,1.66,45,40,1.95,US,1708268192
208,carutapera,-1.195,-46.02,27.65,90,91,4.82,BR,1708268193
209,nogliki,51.8333,143.1667,-13.14,95,100,4.02,RU,1708268194
210,daru,-9.0763,143.2092,27.42,82,60,1.33,PG,1708268195
211,santa helena de goias,-17.8136,-50.5969,28.34,65,98,4.38,BR,1708268196
212,thunder bay,48.4001,-89.3168,-7.01,58,75,6.69,CA,1708268197
213,aitape,-3.1374,142.3475,26.33,89,100,2.51,PG,1708268198
214,dunedin,-45.8742,170.5036,16.87,48,100,3.55,NZ,1708267804
215,warrnambool,-38.3833,142.4833,14.31,87,13,3.21,AU,1708268135
216,ropazi,56.9739,24.6336,1.97,81,12,1.72,LV,1708268201
217,caconda,-13.7333,15.0667,24.24,61,96,3.26,AO,1708268202
218,markovo,57.3206,107.0881,-34.3,100,92,1.25,RU,1708268202
219,east london,-33.0153,27.9116,24.52,73,100,5.14,ZA,1708268115
220,rethymno,35.3647,24.4714,15.67,70,56,4.79,GR,1708268204
221,zahedan,29.4963,60.8629,19.95,40,40,9.77,IR,1708268206
222,hilo,19.7297,-155.09,20.16,84,46,1.34,US,1708268207
223,rio grande,-32.035,-52.0986,28.3,76,21,6.59,BR,1708268208
224,taunsa,30.7048,70.6505,18.29,33,100,5.08,PK,1708268210
225,rongelap,11.1635,166.8941,26.33,80,72,6.84,MH,1708268211
226,marsabit,2.3284,37.9899,30.35,26,99,4.03,KE,1708268212
227,nemuro,43.3236,145.575,0.08,86,2,6.84,JP,1708268214
228,luderitz,-26.6481,15.1594,22.98,61,0,9.27,NA,1708268216
229,xam nua,20.4197,104.0439,18.93,40,0,1.86,LA,1708268216
230,porto novo,6.4965,2.6036,32.9,55,13,5.18,BJ,1708268217
231,bandon,51.7469,-8.7425,13.77,74,80,4.32,IE,1708268218
232,altinopolis,-21.0256,-47.3739,26.64,38,1,3.58,BR,1708268219
233,horta,38.5333,-28.6333,18.8,78,20,4.63,PT,1708268221
234,taoudenni,22.6783,-3.9836,28.29,15,0,8.86,ML,1708268222
235,murzuq,25.9155,13.9184,24.41,13,4,5.98,LY,1708268223
236,yangambi,0.8102,24.4336,26.94,66,100,1.71,CD,1708268224
237,iskateley,67.6803,53.1512,-9.99,93,100,10.73,RU,1708268225
238,vilyuchinsk,52.9306,158.4028,-12.85,68,67,4.5,RU,1708268226
239,benalla,-36.55,145.9833,17.39,52,100,2.88,AU,1708268227
240,anadyr,64.75,177.4833,-11.72,67,20,19.0,RU,1708268228
241,frederico westphalen,-27.3592,-53.3944,29.02,49,0,2.17,BR,1708268229
242,tolanaro,-25.0319,46.9987,25.04,88,75,9.26,MG,1708268230
243,ras el aioun,35.6738,5.6453,14.32,55,78,4.6,DZ,1708268073
244,tosontsengel,48.7567,98.2839,-37.61,94,33,1.24,MN,1708268232
245,kapuskasing,49.4169,-82.4331,-13.95,85,100,5.14,CA,1708268233
246,magistral'nyy,56.1725,107.4458,-32.17,100,100,1.26,RU,1708268234
247,college,64.8569,-147.8028,-20.3,48,67,1.12,US,1708268234
248,coruripe,-10.1256,-36.1756,29.82,70,97,4.47,BR,1708268236
249,sirte,31.2089,16.5887,17.05,65,100,6.71,LY,1708268237
250,ballina,-28.8667,153.5667,20.99,83,15,0.89,AU,1708268238
251,coffs harbour,-30.3,153.1333,22.98,88,93,1.54,AU,1708268238
252,howrah,22.5892,88.3103,24.0,78,1,3.09,IN,1708267963
253,canutama,-6.5339,-64.3831,28.04,74,98,1.17,BR,1708268240
254,saint-joseph,-21.3667,55.6167,26.21,77,83,6.5,RE,1708268241
255,afaahiti,-17.75,-149.2833,25.93,79,72,5.85,PF,1708268242
256,qeshm,26.9581,56.2719,23.94,53,0,13.42,IR,1708268243
257,amungan,15.3652,119.9582,25.05,76,0,2.33,PH,1708268244
258,al ghayzah,16.2079,52.176,24.75,67,10,5.14,YE,1708268245
259,harstad,68.799,16.5293,-1.34,94,100,6.71,NO,1708268246
260,chernyshevskiy,63.0128,112.4714,-31.95,96,100,3.68,RU,1708268247
261,richards bay,-28.783,32.0377,25.17,71,77,5.55,ZA,1708268248
262,nova sintra,14.8667,-24.7167,20.62,80,0,10.93,CV,1708268250
263,saynshand,44.8824,110.1163,-24.78,79,9,4.87,MN,1708268252
264,malpica,43.3228,-8.8105,16.08,82,100,2.8,ES,1708268253
265,fale old settlement,-9.3852,-171.2468,28.71,77,100,5.49,TK,1708268254
266,seven pagodas,12.6264,80.1722,27.27,67,38,4.07,IN,1708268255
267,hammerfest,70.6634,23.6821,-2.75,86,40,9.77,NO,1708268098
268,sisimiut,66.9395,-53.6735,-13.97,94,100,3.38,GL,1708268075
269,dubovka,49.0583,44.829,-4.47,85,100,4.0,RU,1708268258
270,alor gajah,2.3804,102.2089,28.23,78,20,3.09,MY,1708268259
271,kasempa,-13.4584,25.8338,26.79,51,100,1.17,ZM,1708268260
272,poronaysk,49.2167,143.1167,-4.55,97,100,0.84,RU,1708268261
273,tralee,52.2704,-9.7026,13.14,76,40,6.17,IE,1708268265
274,kununurra,-15.7667,128.7333,24.99,94,100,2.57,AU,1708268266
275,argo,37.6333,22.7333,16.55,50,0,1.67,GR,1708268267
276,letlhakane,-21.4167,25.5833,37.64,17,63,3.5,BW,1708268268
277,constanza,47.6603,9.1758,14.31,88,100,1.34,DE,1708268268
278,senador guiomard,-10.1522,-67.7392,28.86,57,74,2.44,BR,1708268270
279,mount pearl,47.5166,-52.7813,-1.97,97,100,15.43,CA,1708268271
280,miles city,46.4083,-105.8406,-8.83,86,100,0.72,US,1708268271
281,guiuan,11.0333,125.7247,27.31,74,33,8.06,PH,1708268273
282,sakaiminato,35.55,133.2333,11.99,82,40,2.06,JP,1708268009
283,ristiina,61.5058,27.2464,-4.94,88,6,3.11,FI,1708268274
284,lata,40.1629,-8.3327,19.4,48,100,1.74,PT,1708268275
285,pinarbasi,38.7229,36.3931,3.48,67,98,3.07,TR,1708268276
286,middelburg,-25.7751,29.4648,21.6,63,94,5.59,ZA,1708268277
287,tsimlyansk,47.6461,42.1019,1.8,62,95,1.53,RU,1708268279
288,mar del plata,-38.0023,-57.5575,26.4,84,75,2.24,AR,1708268280
289,saham,24.1722,56.8886,26.11,38,39,7.4,OM,1708268109
290,faratsiho,-19.4,46.95,15.92,93,100,4.25,MG,1708268281
291,campbell river,50.0163,-125.2446,4.74,100,100,0.0,CA,1708268283
292,yaren,-0.5472,166.916,28.92,75,100,4.05,NR,1708268284
293,kittila,67.6647,24.8936,-5.92,73,0,4.63,FI,1708268285
294,manturovo,58.3353,44.7619,-7.34,97,100,1.55,RU,1708267994
295,tiksi,71.6872,128.8694,-36.18,98,82,2.69,RU,1708268189
296,alvaraes,-3.2208,-64.8042,27.93,51,43,2.52,BR,1708268288
297,cestos city,5.46,-9.5828,29.27,72,100,4.58,LR,1708268290
298,pembroke,45.8168,-77.1162,-4.9,79,99,5.02,CA,1708268291
299,port-gentil,-0.7193,8.7815,28.53,78,96,4.4,GA,1708268292
300,pemangkat,1.1667,108.9667,26.25,87,100,2.43,ID,1708268294
301,bontang,0.1333,117.5,26.76,82,86,5.79,ID,1708268294
302,motueka,-41.1333,173.0167,13.94,63,0,2.56,NZ,1708268295
303,keflavik,64.0049,-22.5624,7.24,87,75,6.17,IS,1708268296
304,indianola,41.3581,-93.5574,-0.61,64,1,2.24,US,1708268297
305,santana,-0.0583,-51.1817,28.1,83,100,3.6,BR,1708268298
306,dzidzantun,21.25,-89.05,20.68,94,100,2.81,MX,1708268299
307,mount gambier,-37.8333,140.7667,12.75,93,8,2.51,AU,1708268301
308,celestun,20.8667,-90.4,21.88,81,100,10.37,MX,1708268302
309,antsiranana,-12.2787,49.2917,29.42,79,75,8.23,MG,1708268303
310,berdigestyakh,62.0989,126.6992,-38.14,100,100,1.15,RU,1708268304
311,guayaramerin,-10.8368,-65.3614,29.03,79,40,2.06,BO,1708268305
312,masterton,-40.9597,175.6575,17.28,86,16,3.33,NZ,1708268306
313,touros,-5.1989,-35.4608,31.26,62,47,4.8,BR,1708268307
314,hasaki,35.7333,140.8333,11.27,69,57,7.38,JP,1708268141
315,capurso,41.0469,16.9216,15.98,72,0,3.09,IT,1708268047
316,kalix,65.853,23.1565,-14.38,95,20,2.1,SE,1708268309
317,quellon,-43.1167,-73.6167,15.5,63,78,4.95,CL,1708268310
318,la sarre,48.8002,-79.1996,-10.43,89,100,5.19,CA,1708268311
319,nguigmi,14.2495,13.1092,28.93,14,80,2.44,NE,1708268312
320,tanjung pandan,-2.75,107.65,25.84,89,83,1.79,ID,1708268314
321,saint-valery-en-caux,49.8667,0.7333,12.09,98,100,7.61,FR,1708268316
322,san patricio,28.017,-97.5169,7.15,48,0,5.17,US,1708268317
323,mogadishu,2.0371,45.3438,28.93,84,20,7.72,SO,1708268318
324,mohelnice,49.777,16.9195,7.19,61,100,1.11,CZ,1708268318
325,chigorodo,7.6664,-76.6811,29.89,79,40,1.03,CO,1708268319
326,wau,7.7029,27.9953,36.96,10,30,3.59,SS,1708268320
327,remire-montjoly,4.9167,-52.2667,30.02,66,75,7.72,GF,1708268321
328,kamaishi,39.2667,141.8833,8.88,80,0,2.82,JP,1708268322
329,bahia blanca,-38.7196,-62.2724,25.8,38,5,4.62,AR,1708268323
330,vorkuta,67.5,64.0,-15.53,95,100,9.97,RU,1708268325
331,glencoe,-28.1783,30.147,25.63,55,13,5.91,ZA,1708268325
332,jianshui,23.6363,102.8264,13.95,34,0,1.92,CN,1708268326
333,kailua-kona,19.6406,-155.9956,20.84,86,76,1.28,US,1708268327
334,churachandpur,24.3333,93.6667,10.77,57,0,0.93,IN,1708268328
335,cooper's town,26.8667,-77.5167,23.32,78,100,2.59,BS,1708268329
336,timimoun,29.2639,0.231,22.21,30,20,6.17,DZ,1708268330
337,port isabel,26.0734,-97.2086,6.7,78,75,4.02,US,1708268331
338,springs,-26.25,28.4,30.79,61,77,2.86,ZA,1708268332
339,ust-nera,64.5667,143.2,-35.67,95,100,0.66,RU,1708268333
340,zakamensk,50.3741,103.2863,-30.24,98,62,0.64,RU,1708268334
341,antofagasta,-23.65,-70.4,22.6,67,98,2.43,CL,1708268323
342,bikenibeu village,1.3673,173.1241,27.98,89,75,2.57,KI,1708268336
343,esme,38.3998,28.969,9.5,46,6,4.8,TR,1708268337
344,gamba,-2.65,10.0,29.99,69,88,4.3,GA,1708268338
345,preobrazheniye,42.9019,133.9064,2.61,96,100,1.69,RU,1708268339
346,haiku-pauwela,20.9219,-156.3051,19.47,85,66,3.58,US,1708268339
347,mzimba,-11.9,33.6,22.54,83,97,2.13,MW,1708268340
348,bel ombre,-4.6167,55.4167,29.91,74,40,7.72,SC,1708268341
349,alexandria,31.2156,29.9553,15.3,67,30,5.98,EG,1708268255
350,saltpond,5.2091,-1.0606,29.94,71,49,6.29,GH,1708268343
351,maslovka,51.5535,39.2357,-1.69,98,100,4.16,RU,1708268344
352,praia da vitoria,38.7333,-27.0667,18.14,77,20,3.29,PT,1708268345
353,mbanza-ngungu,-5.25,14.8667,27.97,71,97,1.91,CD,1708268346
354,el galpon,-25.3807,-64.6526,30.95,49,97,1.55,AR,1708268347
355,tondano,1.3038,124.9112,20.05,87,64,0.94,ID,1708268348
356,reggane,26.7158,0.1714,23.1,27,64,8.38,DZ,1708268349
357,kendari,-3.945,122.4989,24.95,93,57,1.31,ID,1708268270
358,poli,-3.3333,36.8,32.15,33,40,3.09,TZ,1708268351
359,tofol,5.3248,163.0078,28.39,74,83,4.16,FM,1708268352
360,happy valley-goose bay,53.3168,-60.3315,-12.83,85,100,3.09,CA,1708268354
361,philadelphia,39.9523,-75.1638,1.76,49,52,0.89,US,1708268112
362,ebon,4.582,168.6964,28.01,83,100,7.45,MH,1708268356
363,port huron,42.9709,-82.4249,-2.87,70,100,7.2,US,1708268357
364,gadzhiyevo,69.2551,33.3362,-5.98,88,97,10.55,RU,1708268358
365,calabozo,8.9242,-67.4293,32.43,40,12,5.33,VE,1708268359
366,gunupur,19.0833,83.8167,25.54,56,80,2.63,IN,1708268359
367,manokwari,-0.8667,134.0833,25.76,86,100,4.41,ID,1708268362
368,atherton,53.5237,-2.4935,12.97,91,49,1.34,GB,1708268363
369,munduk,-8.2687,115.0795,17.95,95,100,0.52,ID,1708268364
370,xining,36.6167,101.7667,-9.07,60,56,1.4,CN,1708268117
371,ambatolampy,-19.3833,47.4167,16.11,96,100,3.3,MG,1708268365
372,urangan,-25.3,152.9,23.44,89,2,3.13,AU,1708268366
373,nuuk,64.1835,-51.7216,-1.18,100,100,4.02,GL,1708268073
374,belaguntha,19.8833,84.65,23.54,69,41,1.0,IN,1708268369
375,san mariano,7.5,126.0,21.4,90,18,1.61,PH,1708268370
376,watertown,42.3709,-71.1828,-0.49,54,96,4.47,US,1708268371
377,ghat,24.9647,10.1728,27.37,7,0,3.67,LY,1708268206
378,taybad,34.74,60.7756,1.36,77,99,9.36,IR,1708268372
379,undurkhaan,47.3194,110.6556,-31.31,86,54,0.48,MN,1708268373
380,paita,-5.0892,-81.1144,27.13,69,27,3.39,PE,1708268374
381,cannonvale,-20.2833,148.7,26.66,76,93,6.57,AU,1708268375
382,hailey,43.5196,-114.3153,-2.33,86,100,4.63,US,1708268376
383,kenai,60.5544,-151.2583,-5.58,87,95,2.9,US,1708268377
384,malvan,16.0667,73.4667,26.04,76,13,3.15,IN,1708268378
385,necochea,-38.5473,-58.7368,27.82,52,58,1.2,AR,1708268379
386,papao,-17.75,-149.55,26.82,77,96,6.52,PF,1708268380
387,lensk,60.7253,114.9278,-29.36,90,100,4.62,RU,1708268093
388,barcelos,41.5388,-8.6151,21.62,67,92,2.81,PT,1708268327
389,vyazemskiy,47.5378,134.7525,0.18,95,96,1.98,RU,1708268384
390,kargasok,59.0556,80.8572,-30.58,99,16,0.89,RU,1708268385
391,nagqu,31.5,92.0,-5.41,23,35,2.43,CN,1708268386
392,yuxia,34.0615,108.6291,6.34,34,68,1.38,CN,1708268387
393,rice lake,45.5061,-91.7382,-2.82,68,0,5.66,US,1708268388
394,uliastay,47.7417,96.8444,-31.18,70,59,3.56,MN,1708268376
395,al muwayh,22.4333,41.7583,23.58,19,6,3.38,SA,1708268391
396,revda,56.801,59.9303,-10.4,76,0,4.51,RU,1708268392
397,withernsea,53.7311,0.0335,14.14,82,78,4.81,GB,1708268393
398,port douglas,-16.4833,145.4667,26.4,87,100,4.35,AU,1708268394
399,gamboma,-1.8764,15.8644,34.53,37,87,0.16,CG,1708268395
400,zhezqazghan,47.7833,67.7667,-22.68,77,0,10.0,KZ,1708268396
401,lanzhou,36.0564,103.7922,-4.09,34,53,2.17,CN,1708268397
402,la ronge,55.1001,-105.2842,-18.86,78,0,3.6,CA,1708268398
403,labrador city,52.9463,-66.9114,-24.05,70,75,2.57,CA,1708268399
404,sydney,-33.8679,151.2073,23.16,77,99,4.63,AU,1708267677
405,pont rouge,48.8833,-72.0825,-17.56,84,98,2.3,CA,1708268401
406,merizo village,13.2658,144.6691,26.85,90,8,6.29,GU,1708268402
407,whitecourt,54.1502,-115.6855,-9.42,67,20,4.63,CA,1708268409
408,kovdor,67.5662,30.4758,-7.16,85,57,5.4,RU,1708268413
409,doctor alberto oviedo mota,32.2275,-115.1697,11.11,53,69,2.15,MX,1708268422
410,pemba,-12.974,40.5178,28.31,77,100,2.0,MZ,1708268424
411,bahir dar,11.5936,37.3908,27.57,32,86,5.16,ET,1708268425
412,chibougamau,49.9168,-74.3659,-23.21,77,75,2.57,CA,1708268427
413,bollnas,61.3482,16.3946,-0.9,89,94,2.77,SE,1708268430
414,zdvinsk,54.7021,78.661,-30.28,100,54,1.9,RU,1708268431
415,manicore,-5.8092,-61.3003,31.77,64,83,1.36,BR,1708268433
416,kone,-21.0595,164.8658,23.56,88,1,2.07,NC,1708268434
417,boquira,-12.8231,-42.7306,28.02,65,98,2.52,BR,1708268435
418,gordonvale,-17.0936,145.7842,26.61,100,100,1.99,AU,1708268272
419,alice springs,-23.7,133.8833,29.01,53,91,6.17,AU,1708268329
420,ilebo,-4.3167,20.5833,26.07,83,95,1.73,CD,1708268439
421,uturoa,-16.7333,-151.4333,28.04,79,100,6.17,PF,1708268440
422,faya-largeau,17.9257,19.1043,29.91,8,7,8.45,TD,1708268442
423,kalundborg,55.6795,11.0886,6.85,98,100,10.41,DK,1708268397
424,pajok,3.8651,32.4821,35.39,19,97,3.77,SS,1708268444
425,san-pedro,4.7485,-6.6363,30.47,67,100,4.09,CI,1708268445
426,illizi,26.4833,8.4667,27.19,8,100,5.26,DZ,1708268445
427,ar ruseris,11.8659,34.3869,34.66,14,17,5.55,SD,1708268446
428,vorgashor,67.5833,63.95,-15.63,94,100,10.1,RU,1708268448
429,sinop,41.7711,34.8709,2.99,97,100,1.85,TR,1708268449
430,hovd,48.0056,91.6419,-21.57,79,27,1.41,MN,1708268450
431,igarka,67.4667,86.5833,-22.95,92,100,6.65,RU,1708268452
432,hulan,45.9833,126.6,-10.01,92,100,4.72,CN,1708268454
433,minas de marcona,-15.2119,-75.1103,22.52,71,83,3.45,PE,1708268455
434,enriquillo,17.9,-71.2333,28.13,69,1,5.74,DO,1708268456
435,urazovo,50.0836,38.0395,0.58,99,100,3.17,RU,1708268458
436,al hudaydah,14.7978,42.9545,25.92,74,57,6.8,YE,1708268459
437,lupane,-18.9315,27.807,37.01,15,36,6.19,ZW,1708268460
438,agadez,19.75,10.25,27.09,10,0,4.15,NE,1708268463
439,leava,-14.3,-178.1667,26.72,90,100,3.45,WF,1708268464
440,bizhbulyak,53.6967,54.2642,-16.28,83,0,4.45,RU,1708268465
441,diapaga,12.0708,1.7889,37.1,8,76,1.74,BF,1708268467
442,pampa del indio,-26.0647,-59.919,31.4,40,2,2.73,AR,1708268468
443,kill devil hills,36.0307,-75.676,6.1,54,0,2.06,US,1708268470
444,thanh hoa,19.8,105.7667,22.16,88,13,3.18,VN,1708268264
445,ar rutbah,33.0381,40.2848,14.26,46,22,2.86,IQ,1708268472
446,watsa,3.0372,29.5355,33.63,18,100,1.85,CD,1708268473
447,segezha,63.7415,34.3222,-6.35,87,95,5.62,RU,1708268475
448,jiazi,22.8779,116.067,19.85,93,99,1.99,CN,1708268476
449,attapeu,14.8,106.8333,24.56,50,17,0.39,LA,1708268477
450,tazacorte,28.629,-17.9293,21.75,72,75,8.94,ES,1708268478
451,syktyvkar,61.6764,50.8099,-9.15,85,75,7.15,RU,1708268372
452,rouyn-noranda,48.2398,-79.0288,-11.95,79,100,4.12,CA,1708268482
453,san luis de la paz,21.3,-100.5167,5.94,70,18,1.08,MX,1708268483
454,visby,57.6409,18.296,2.12,64,0,2.06,SE,1708268484
455,marco,25.9726,-81.729,17.78,99,100,7.51,US,1708268485
456,sinabang,2.4803,96.3801,27.39,84,99,2.03,ID,1708268486
457,stornoway,58.2093,-6.3865,11.88,80,40,3.09,GB,1708268487
458,tagiura,32.8817,13.3506,17.17,68,100,7.47,LY,1708268488
459,hotan,37.0997,79.9269,-1.82,58,100,1.32,CN,1708268489
460,leh,34.1667,77.5833,-3.27,95,100,2.61,IN,1708268256
461,kampong dungun,3.2167,101.3167,28.09,92,69,1.3,MY,1708268474
462,las veredas,23.1388,-109.7075,18.95,32,0,1.05,MX,1708268492
463,lianzhou,24.7811,112.3825,20.42,88,100,2.01,CN,1708268493
464,lejanias,3.5251,-74.0216,29.03,53,62,3.08,CO,1708268495
465,benemerito de las americas,16.5167,-90.6439,20.15,100,100,0.74,MX,1708268496
466,ayr,55.4627,-4.6339,12.5,93,40,4.63,GB,1708268326
467,tshabong,-26.05,22.45,38.02,14,56,3.27,BW,1708268498
468,nioki,-2.7167,17.6833,32.02,55,84,0.92,CD,1708268500
469,nabire,-3.3667,135.4833,24.9,95,100,1.15,ID,1708268501
470,mechetinskaya,46.7713,40.456,1.44,75,29,1.86,RU,1708268502
471,turtas,58.9417,69.1325,-19.6,96,9,3.53,RU,1708268504
472,puerto baquerizo moreno,-0.9,-89.6,26.55,83,35,3.09,EC,1708268505
473,nakanojomachi,36.5833,138.85,8.09,85,67,0.33,JP,1708268506
474,sinaloa de leyva,25.8333,-108.2333,17.44,46,0,1.07,MX,1708268507
475,aquiraz,-3.9014,-38.3911,31.13,70,98,3.14,BR,1708268298
476,filadelfia,39.9523,-75.1638,1.98,48,52,0.89,US,1708268482
477,mossel bay,-34.1831,22.146,22.96,68,0,8.02,ZA,1708267980
478,codrington,-38.2667,141.9667,13.52,90,15,3.05,AU,1708268512
479,moranbah,-22.0016,148.0466,22.62,81,50,4.3,AU,1708268513
480,lastoursville,-0.8143,12.7287,31.32,54,100,1.45,GA,1708268514
481,bamusso,4.4591,8.9027,31.92,59,34,5.18,CM,1708268515
482,tehri,30.3833,78.4833,14.78,41,100,1.06,IN,1708268226
483,sandnessjoen,66.0217,12.6316,1.06,80,40,2.06,NO,1708268518
484,sola,-13.8833,167.55,27.87,77,6,3.01,VU,1708268521
485,yantzaza,-3.8278,-78.7594,24.23,70,72,0.91,EC,1708268522
486,kismayo,-0.3582,42.5454,27.48,79,10,7.33,SO,1708268523
487,nova vicosa,-17.8919,-39.3719,26.31,84,100,5.91,BR,1708268524
488,ulladulla,-35.35,150.4667,20.54,95,100,3.63,AU,1708268475
489,weno,7.4515,151.8468,27.82,77,34,10.61,FM,1708268526
490,san rafael,-34.6177,-68.3301,23.89,43,100,2.86,AR,1708268527
491,kupang,-10.1667,123.5833,27.24,87,100,2.44,ID,1708268449
492,tsiombe,-25.3,45.4833,24.63,74,40,7.44,MG,1708268529
493,inhambane,-23.865,35.3833,28.8,69,39,7.41,MZ,1708268530
494,pisco,-13.7,-76.2167,24.45,83,32,4.44,PE,1708268531
495,jiuquan,39.7432,98.5174,-8.03,45,100,5.55,CN,1708268532
496,kuqa,41.7278,82.9364,-4.55,30,100,2.67,CN,1708268533
497,surigao,9.7839,125.4889,25.86,79,15,5.25,PH,1708268534
498,quang ngai,15.1167,108.8,22.0,93,42,2.15,VN,1708268404
499,kirakira,-10.4544,161.9205,26.99,87,100,2.23,SB,1708268536
500,zhangjiajie,29.1294,110.4783,18.7,89,60,0.95,CN,1708268537
501,yarmouth,41.7057,-70.2286,1.09,58,75,10.8,US,1708268538
502,orange,33.7,-117.7675,13.1,89,100,2.57,US,1708268539
503,qutqashen,40.9814,47.8458,-1.04,95,100,1.45,AZ,1708268540
504,khandyga,62.6667,135.6,-30.64,98,100,1.92,RU,1708268541
505,fort mcmurray,56.7268,-111.381,-14.28,99,93,1.78,CA,1708268542
506,chipinge,-20.1883,32.6236,25.79,48,1,3.13,ZW,1708268544
507,swinoujscie,53.9105,14.2471,7.32,76,20,4.63,PL,1708268302
508,markivka,49.5229,39.5705,0.27,74,100,2.83,UA,1708268546
509,dhidhdhoo,6.8833,73.1,28.19,74,59,3.82,MV,1708268547
510,okha,53.5739,142.9478,-16.95,93,100,4.53,RU,1708268548
511,tshikapa,-6.4167,20.8,28.47,77,97,0.34,CD,1708268548
512,xai-xai,-25.0519,33.6442,28.3,70,28,5.7,MZ,1708268442
513,skelleftea,64.7507,20.9528,-4.8,89,0,2.06,SE,1708268552
514,utete,-7.986,38.758,27.72,91,100,2.77,TZ,1708268553
515,progreso,21.2833,-89.6667,22.2,91,100,8.32,MX,1708268365
516,rakops,-21.0167,24.3333,37.3,17,38,4.81,BW,1708268555
517,ust-tsilma,65.441,52.1498,-9.1,92,100,5.81,RU,1708268556
518,caleta de carquin,-11.0925,-77.6267,25.63,77,30,3.47,PE,1708268557
519,altamont,42.2068,-121.7372,2.94,90,75,4.12,US,1708268558
520,ringkobing,56.0901,8.244,7.23,99,100,4.62,DK,1708268559
521,baker city,44.7749,-117.8344,1.47,84,100,4.63,US,1708268560
522,north platte,41.1239,-100.7654,-6.06,79,0,3.6,US,1708268561
523,ipaba,-19.4136,-42.4194,28.37,76,100,1.34,BR,1708268562
524,sovetskaya gavan',48.9723,140.2878,-8.83,99,100,4.34,RU,1708268563
525,mahina,-17.5065,-149.489,26.87,83,20,3.09,PF,1708268564
526,san antonio de pale,-1.4014,5.6325,29.28,72,85,3.77,GQ,1708268565
527,karystos,38.0133,24.4161,14.55,71,12,5.74,GR,1708268566
528,brokopondo,4.75,-55.1667,30.49,53,27,1.81,SR,1708268567
529,tulagi,-9.0996,160.1476,28.57,81,97,6.92,SB,1708268569
530,la passe,45.5549,-0.8967,14.13,86,100,4.25,FR,1708268570
531,cuajinicuilapa,16.4667,-98.4167,24.7,49,0,1.65,MX,1708268570
532,bodo,67.28,14.405,0.02,86,75,4.12,NO,1708268371
533,banyo,6.75,11.8167,33.76,13,92,2.8,CM,1708268572
534,glace bay,46.1969,-59.957,-3.24,72,40,11.32,CA,1708268573
535,laguna,38.421,-121.4238,11.76,93,0,2.57,US,1708268574
536,santa terezinha,-29.9002,-50.0904,26.15,78,1,6.11,BR,1708268576
537,ma'rib,15.4591,45.3253,29.62,17,2,6.8,YE,1708268577
538,votkinsk,57.0486,53.9872,-7.35,77,84,7.24,RU,1708268423
539,tangalle,6.024,80.7911,26.09,74,71,6.12,LK,1708268579
540,vanino,49.0869,140.2543,-8.93,95,100,2.73,RU,1708268381
541,antalaha,-14.9003,50.2788,27.2,88,100,1.6,MG,1708268582
542,gladstone,-23.85,151.25,24.32,73,6,1.54,AU,1708268583
543,lautoka,-17.6167,177.4667,25.52,92,100,3.76,FJ,1708268584
544,slave lake,55.2834,-114.769,-9.16,89,31,0.68,CA,1708268585
545,charlottetown,46.2352,-63.1267,-7.47,71,78,8.05,CA,1708268435
546,aleksandrovsk-sakhalinskiy,50.8975,142.1561,-8.57,96,100,4.01,RU,1708268587
547,katsuura,35.1333,140.3,14.76,72,23,6.67,JP,1708268324
548,tommot,58.9564,126.2925,-30.22,95,100,2.44,RU,1708268589
549,letlhakeng,-24.0944,25.0298,36.88,18,67,5.46,BW,1708268590
550,broome,42.2506,-75.833,-4.61,66,100,6.17,US,1708268591
551,vadso,70.0744,29.7487,-3.91,93,100,6.17,NO,1708268592
552,peace river,56.2501,-117.286,-11.3,86,99,0.95,CA,1708268593
553,taroa,8.7058,171.2275,27.83,73,56,7.8,MH,1708268595
554,nova odesa,47.3078,31.7851,5.29,90,100,3.73,UA,1708268596
555,argostolion,38.1811,20.489,17.04,67,20,4.63,GR,1708268597
556,usinsk,65.9939,57.5281,-12.74,93,100,14.75,RU,1708268599
557,kota belud,6.351,116.4305,25.11,81,62,3.07,MY,1708268600
558,severo-yeniseyskiy,60.3725,93.0408,-35.79,100,80,1.34,RU,1708268601
559,balqash,46.8481,74.995,-20.17,86,4,6.23,KZ,1708268602
560,nampula,-15.1165,39.2666,28.21,70,50,1.04,MZ,1708268412
561,cheremukhovo,60.3484,59.9851,-12.24,84,17,4.02,RU,1708268604
562,tarawa,1.419,172.984,28.56,81,100,6.98,KI,1708268605
563,ilomantsi,62.6716,30.9328,-5.73,88,17,4.19,FI,1708268606
564,tynda,55.1667,124.7167,-37.33,95,41,1.96,RU,1708268607
565,bubaque,11.2833,-15.8333,26.23,75,3,3.9,GW,1708268609
566,pizarro,4.9533,-77.366,28.24,84,98,1.33,CO,1708268610
567,suzun,53.7841,82.3116,-23.06,97,95,2.33,RU,1708268611
568,new norfolk,-42.7826,147.0587,14.95,94,68,1.2,AU,1708268612
569,nar'yan-mar,67.6713,53.087,-9.94,93,100,10.73,RU,1708268475
570,charters towers,-20.1,146.2667,23.37,84,99,4.04,AU,1708268614
571,perry,37.2506,-83.1999,-0.9,37,57,3.74,US,1708268615
572,peringat,6.0333,102.2833,24.47,91,17,1.19,MY,1708268468
573,st. paul,44.9444,-93.0933,-1.99,72,0,5.66,US,1708268617
